[{"global_id":641388221,"Fax":[{"Fax":"(499) 230-34-01"}],"Email":[{"Email":"adigpred@mail.ru"}],"WorkingHours":[{"Hours":"09:00-18:00","DayOfWeek":"понедельник"},{"Hours":"09:00-18:00","DayOfWeek":"вторник"},{"Hours":"09:00-18:00","DayOfWeek":"среда"},{"Hours":"09:00-18:00","DayOfWeek":"четверг"},{"Hours":"09:00-16:45","DayOfWeek":"пятница"},{"Hours":"выходной","DayOfWeek":"суббота"},{"Hours":"выходной","DayOfWeek":"воскресенье"}],"Name":"Постоянное представительство Республики Адыгея при Президенте Российской Федерации","ShortName":"Постоянное представительство Республики Адыгея при Президенте Российской Федерации","INN":"7704091448","KPP":"770501001","OGRN":"1037739413535","AdmArea":"Центральный административный округ","District":"район Замоскворечье","LegalAddress":"115184, город Москва, Старый Толмачевский переулок, дом 6","Address":"Старый Толмачёвский переулок, дом 6","ChiefName":"Полевой Валерий Валерьевич","Phone":[{"Phone":"(499) 230-30-01"}],"geoData":{"type":"Point","coordinates":[37.631613,55.740061]}},{"global_id":641388237,"Fax":[],"Email":[],"WorkingHours":[{"Hours":"09:00-18:00","DayOfWeek":"понедельник"},{"Hours":"09:00-18:00","DayOfWeek":"вторник"},{"Hours":"09:00-18:00","DayOfWeek":"среда"},{"Hours":"09:00-18:00","DayOfWeek":"четверг"},{"Hours":"09:00-16:45","DayOfWeek":"пятница"},{"Hours":"выходной","DayOfWeek":"суббота"},{"Hours":"выходной","DayOfWeek":"воскресенье"}],"Name":"Представительство Ханты-Мансийского автономного округа - Югры при Правительстве Российской Федерации и в субъектах Российской Федерации","ShortName":"Представительство Югры","INN":"7704091896","KPP":"770401001","OGRN":"1037709084710","AdmArea":"Центральный административный округ","District":"район Хамовники","LegalAddress":"119002, город Москва, Староконюшенный переулок, дом 10/10, строение 2","Address":"Староконюшенный переулок, дом 10/10, строение 2","ChiefName":"Арсланова Фануза Шарафиевна","Phone":[{"Phone":"(495) 982-04-00"}],"geoData":{"type":"Point","coordinates":[37.596273,55.745129]}},{"global_id":641388265,"Fax":[{"Fax":"(495) 680-11-74"}],"Email":[{"Email":"arbat19@mail.ru"}],"WorkingHours":[{"Hours":"09:00-18:00","DayOfWeek":"понедельник"},{"Hours":"09:00-18:00","DayOfWeek":"вторник"},{"Hours":"09:00-18:00","DayOfWeek":"среда"},{"Hours":"09:00-18:00","DayOfWeek":"четверг"},{"Hours":"09:00-17:00","DayOfWeek":"пятница"},{"Hours":"выходной","DayOfWeek":"суббота"},{"Hours":"выходной","DayOfWeek":"воскресенье"}],"Name":"Постоянное представительство Чеченской Республики при Президенте Российской Федерации","ShortName":"Постоянное представительство Чеченской Республики при Президенте Российской Федерации","INN":"7704216400","KPP":"770201001","OGRN":"1037709084710","AdmArea":"Центральный административный округ","District":"Мещанский район","LegalAddress":"129090, город Москва, Астраханский переулок, дом 17/27, строение 1","Address":"Астраханский переулок, дом 17/27, строение 1","ChiefName":"Таймасханов Бекхан Элимсолтоевич","Phone":[{"Phone":"(495) 680-06-55"}],"geoData":{"type":"Point","coordinates":[37.64109,55.77998]}},{"global_id":641388401,"Fax":[{"Fax":"(495) 697-45-39"}],"Email":[{"Email":"predchita@arbat.tsnet.ru"}],"WorkingHours":[{"Hours":"09:00-17:30","DayOfWeek":"понедельник"},{"Hours":"09:00-17:30","DayOfWeek":"вторник"},{"Hours":"09:00-17:30","DayOfWeek":"среда"},{"Hours":"09:00-17:30","DayOfWeek":"четверг"},{"Hours":"09:00-16:30","DayOfWeek":"пятница"},{"Hours":"выходной","DayOfWeek":"суббота"},{"Hours":"выходной","DayOfWeek":"воскресенье"}],"Name":"Представительство Правительства Забайкальского края при Правительстве Российской Федерации","ShortName":"Представительство Правительства Забайкальского края при Правительстве Российской Федерации","INN":"7704721668","KPP":"770401001","OGRN":"1097746082972","AdmArea":"Центральный административный округ","District":"район Арбат","LegalAddress":"127025, город Москва, улица Новый Арбат, дом 19, офис 2003","Address":"улица Новый Арбат, дом 19","ChiefName":"Бутыльский Алексей Николаевич","Phone":[{"Phone":"(495) 697-33-28"}],"geoData":{"type":"Point","coordinates":[37.588548,55.752156]}},{"global_id":641397159,"Fax":[],"Email":[{"Email":"polprchuv@col.ru"}],"WorkingHours":[{"Hours":"08:30-17:30","DayOfWeek":"понедельник"},{"Hours":"08:30-17:30","DayOfWeek":"вторник"},{"Hours":"08:30-17:30","DayOfWeek":"среда"},{"Hours":"08:30-17:30","DayOfWeek":"четверг"},{"Hours":"08:30-17:30","DayOfWeek":"пятница"},{"Hours":"выходной","DayOfWeek":"суббота"},{"Hours":"выходной","DayOfWeek":"воскресенье"}],"Name":"Полномочное представительство Чувашской Республики при Президенте Российской Федерации","ShortName":"Полпредство Чувашии при Президенте России","INN":"7704019836","KPP":"770601001","OGRN":"1037706045299","AdmArea":"Центральный административный округ","District":"район Якиманка","LegalAddress":"119017, город Москва, улица Большая Ордынка , дом 46, строение 1","Address":"улица Большая Ордынка, дом 46, строение 1","ChiefName":"Акиньшин Юрий Алексеевич","Phone":[{"Phone":"(495) 953-21-59"}],"geoData":{"type":"Point","coordinates":[37.624154,55.735262]}},{"global_id":641403944,"Fax":[{"Fax":"(495) 708-33-92"}],"Email":[{"Email":"stavpred1@mail.ru"}],"WorkingHours":[{"Hours":"09:00-18:00","DayOfWeek":"понедельник"},{"Hours":"09:00-18:00","DayOfWeek":"вторник"},{"Hours":"09:00-18:00","DayOfWeek":"среда"},{"Hours":"09:00-18:00","DayOfWeek":"четверг"},{"Hours":"09:00-16:45","DayOfWeek":"пятница"},{"Hours":"выходной","DayOfWeek":"суббота"},{"Hours":"выходной","DayOfWeek":"воскресенье"}],"Name":"Представительство Правительства Ставропольского края при Правительстве Российской Федерации","ShortName":"Представительство Правительства Ставропольского края при Правительстве Российской Федерации","INN":"7704725711","KPP":"770401001","OGRN":"1097746245838","AdmArea":"Центральный административный округ","District":"район Хамовники","LegalAddress":"119034, город Москва, улица Пречистенка, дом 40/2, строение 1","Address":"улица Пречистенка, дом 40/2, строение 1","ChiefName":"Гевко Юрий Михайлович","Phone":[{"Phone":"(495) 708-33-66"}],"geoData":{"type":"Point","coordinates":[37.586904,55.739134]}},{"global_id":641404209,"Fax":[{"Fax":"(465) 621-21-57"}],"Email":[{"Email":"predomskobl@ppr.omskportal.ru"}],"WorkingHours":[{"Hours":"08:30-17:40","DayOfWeek":"понедельник"},{"Hours":"08:30-17:40","DayOfWeek":"вторник"},{"Hours":"08:30-17:40","DayOfWeek":"среда"},{"Hours":"08:30-17:40","DayOfWeek":"четверг"},{"Hours":"08:30-16:00","DayOfWeek":"пятница"},{"Hours":"выходной","DayOfWeek":"суббота"},{"Hours":"выходной","DayOfWeek":"воскресенье"}],"Name":"Представительство Омской области при Правительстве Российской Федерации","ShortName":"Представительство Омской области при Правительстве Российской Федерации","INN":"7701350630","KPP":"770101001","OGRN":"1027739079345","AdmArea":"Центральный административный округ","District":"Басманный район","LegalAddress":"107078, город Москва, Большой Козловский переулок, дом 14/15, строение 1","Address":"Большой Козловский переулок, дом 14","ChiefName":"Ишков Андрей Александрович","Phone":[{"Phone":"(495) 621-65-54"}],"geoData":{"type":"Point","coordinates":[37.647747,55.765564]}},{"global_id":641423679,"Fax":[{"Fax":"(495) 699-14-08"}],"Email":[{"Email":"pred29@dvinaland.ru"}],"WorkingHours":[{"Hours":"09:00-18:00","DayOfWeek":"понедельник"},{"Hours":"09:00-18:00","DayOfWeek":"вторник"},{"Hours":"09:00-18:00","DayOfWeek":"среда"},{"Hours":"09:00-18:00","DayOfWeek":"четверг"},{"Hours":"09:00-17:00","DayOfWeek":"пятница"},{"Hours":"выходной","DayOfWeek":"суббота"},{"Hours":"выходной","DayOfWeek":"воскресенье"}],"Name":"Представительство Архангельской области при Правительстве Российской Федерации","ShortName":"Представительство Архангельской области при Правительстве Российской Федерации","INN":"7710035473","KPP":"771001001","OGRN":"1027739388302","AdmArea":"Центральный административный округ","District":"Пресненский район","LegalAddress":"123001, город Москва, Трехпрудный переулок, дом 11/13, строение 5","Address":"Трёхпрудный переулок, дом 11/13, строение 1","ChiefName":"Гришков Алексей Петрович","Phone":[{"Phone":"(495) 699-15-32"}],"geoData":{"type":"Point","coordinates":[37.596139,55.765934]}},{"global_id":641425929,"Fax":[{"Fax":"(495) 609-93-04"}],"Email":[{"Email":"predm@nso.ru"}],"WorkingHours":[{"Hours":"08:00-17:00","DayOfWeek":"понедельник"},{"Hours":"08:00-17:00","DayOfWeek":"вторник"},{"Hours":"08:00-17:00","DayOfWeek":"среда"},{"Hours":"08:00-17:00","DayOfWeek":"четверг"},{"Hours":"08:00-15:45","DayOfWeek":"пятница"},{"Hours":"выходной","DayOfWeek":"суббота"},{"Hours":"выходной","DayOfWeek":"воскресенье"}],"Name":"Управление – постоянное представительство Новосибирской области в городе Москве","ShortName":"Управление – постоянное представительство Новосибирской области в городе Москве","INN":"7703781262","KPP":"770301001","OGRN":"1127747243293","AdmArea":"Центральный административный округ","District":"Пресненский район","LegalAddress":"121069, город Москва, Скатертный переулок, дом 25","Address":"Скатертный переулок, дом 25","ChiefName":"Сычева Татьяна Федоровна","Phone":[{"Phone":"(495) 609-93-01"}],"geoData":{"type":"Point","coordinates":[37.591225,55.75668]}},{"global_id":641427315,"Fax":[{"Fax":"(495) 938-73-33"}],"Email":[{"Email":"penzpred58@yandex.ru"}],"WorkingHours":[{"Hours":"09:00-18:00","DayOfWeek":"понедельник"},{"Hours":"09:00-18:00","DayOfWeek":"вторник"},{"Hours":"09:00-18:00","DayOfWeek":"среда"},{"Hours":"09:00-18:00","DayOfWeek":"четверг"},{"Hours":"09:00-17:00","DayOfWeek":"пятница"},{"Hours":"выходной","DayOfWeek":"суббота"},{"Hours":"выходной","DayOfWeek":"воскресенье"}],"Name":"Государственное бюджетное учреждение «Представительство Правительства Пензенской области при Правительстве Российской Федерации»","ShortName":"ГБУ «Представительство Правительства Пензенской области при Правительстве Российской Федерации»","INN":"7736680478","KPP":"773601001","OGRN":"1147746973109","AdmArea":"Юго-Западный административный округ","District":"Гагаринский район","LegalAddress":"119119, город Москва, Ленинский проспект, дом 42, корпус 1-2-3","Address":"город Москва, Ленинский проспект, дом 42, корпус 1-2-3","ChiefName":"Саморуков Андрей Вячеславович","Phone":[{"Phone":"(495) 938-86-00"}],"geoData":{"type":"Point","coordinates":[37.565991,55.703368]}},{"global_id":641427573,"Fax":[{"Fax":"(495) 697-59-17"}],"Email":[{"Email":"mospred.regadm49@yandex.ru"}],"WorkingHours":[{"Hours":"09:00-18:00","DayOfWeek":"понедельник"},{"Hours":"09:00-18:00","DayOfWeek":"вторник"},{"Hours":"09:00-18:00","DayOfWeek":"среда"},{"Hours":"09:00-18:00","DayOfWeek":"четверг"},{"Hours":"09:00-17:00","DayOfWeek":"пятница"},{"Hours":"выходной","DayOfWeek":"суббота"},{"Hours":"выходной","DayOfWeek":"воскресенье"}],"Name":"Представительство Правительства Магаданской области при Правительстве Российской Федерации","ShortName":"Представительство Правительства Магаданской области при Правительстве Российской Федерации","INN":"7704182350","KPP":"770401001","OGRN":"1027739083602","AdmArea":"Центральный административный округ","District":"район Арбат","LegalAddress":"127025, город Москва, улица Новый Арбат, дом 19, офис 2023","Address":"улица Новый Арбат, дом 19","ChiefName":"Азнаурьян Степан Арменакович","Phone":[{"Phone":"(495) 697-78-28"}],"geoData":{"type":"Point","coordinates":[37.588548,55.752156]}},{"global_id":641428668,"Fax":[],"Email":[{"Email":"rjar@mail.ru"}],"WorkingHours":[{"Hours":"09:00-17:00","DayOfWeek":"понедельник"},{"Hours":"09:00-17:00","DayOfWeek":"вторник"},{"Hours":"09:00-17:00","DayOfWeek":"среда"},{"Hours":"09:00-17:00","DayOfWeek":"четверг"},{"Hours":"09:00-17:00","DayOfWeek":"пятница"},{"Hours":"выходной","DayOfWeek":"суббота"},{"Hours":"выходной","DayOfWeek":"воскресенье"}],"Name":"Представительство правительства Еврейской автономной области при Правительстве Российской Федерации","ShortName":"Представительство правительства Еврейской автономной области при Правительстве Российской Федерации","INN":"7704574981","KPP":"770401001","OGRN":"1057748705926","AdmArea":"Центральный административный округ","District":"район Якиманка","LegalAddress":"119019, город Москва, улица Новый Арбат, дом 19","Address":"1-й Хвостов переулок, дом 13, строение 5","ChiefName":"Завадский Алексей Егорович","Phone":[{"Phone":"(495) 114-56-03"}],"geoData":{"type":"Point","coordinates":[37.615398,55.734826]}},{"global_id":641429054,"Fax":[{"Fax":"(495) 607-95-78"}],"Email":[{"Email":"astra2079578@yandex.ru"}],"WorkingHours":[{"Hours":"09:00-18:00","DayOfWeek":"понедельник"},{"Hours":"09:00-18:00","DayOfWeek":"вторник"},{"Hours":"09:00-18:00","DayOfWeek":"среда"},{"Hours":"09:00-18:00","DayOfWeek":"четверг"},{"Hours":"09:00-17:00","DayOfWeek":"пятница"},{"Hours":"выходной","DayOfWeek":"суббота"},{"Hours":"выходной","DayOfWeek":"воскресенье"}],"Name":"Представительство Губернатора Астраханской области при Правительстве Российской Федерации (агенство Астраханской области)","ShortName":"Представительство Губернатора Астраханской области при Правительстве Российской Федерации","INN":"7702365372","KPP":"770201001","OGRN":"1057702022080","AdmArea":"Центральный административный округ","District":"Мещанский район","LegalAddress":"129090, город Москва, проспект Мира, дом 3, корпус 1","Address":"проспект Мира, дом 3, корпус 1","ChiefName":"Чаплин Юрий Константинович","Phone":[{"Phone":"(495) 607-92-89"}],"geoData":{"type":"Point","coordinates":[37.631927,55.773317]}},{"global_id":641429606,"Fax":[{"Fax":"(495) 544-43-19"}],"Email":[{"Email":"info@kirovpred.ru"}],"WorkingHours":[{"Hours":"09:00-18:00","DayOfWeek":"понедельник"},{"Hours":"09:00-18:00","DayOfWeek":"вторник"},{"Hours":"09:00-18:00","DayOfWeek":"среда"},{"Hours":"09:00-18:00","DayOfWeek":"четверг"},{"Hours":"09:00-17:00","DayOfWeek":"пятница"},{"Hours":"выходной","DayOfWeek":"суббота"},{"Hours":"выходной","DayOfWeek":"воскресенье"}],"Name":"Кировское областное государственное казенное учреждение «Представительство Правительства Кировской области»","ShortName":"КОГКУ «Представительство Правительства Кировской области»","INN":"7730707243","KPP":"770301001","OGRN":"1147746599912","AdmArea":"Центральный административный округ","District":"район Арбат","LegalAddress":"125993, город Москва, Газетный переулок, дом 3-5, строение 1","Address":"улица Новый Арбат, дом 21","ChiefName":"Баландина Оксана Леонидовна","Phone":[{"Phone":"(495) 544-43-19"}],"geoData":{"type":"Point","coordinates":[37.585925,55.751923]}},{"global_id":641437578,"Fax":[{"Fax":"(495) 694-39-78"}],"Email":[{"Email":"kurgan-m@mail.ru"}],"WorkingHours":[{"Hours":"09:00-17:00","DayOfWeek":"понедельник"},{"Hours":"09:00-17:00","DayOfWeek":"вторник"},{"Hours":"09:00-17:00","DayOfWeek":"среда"},{"Hours":"09:00-17:00","DayOfWeek":"четверг"},{"Hours":"09:00-17:00","DayOfWeek":"пятница"},{"Hours":"выходной","DayOfWeek":"суббота"},{"Hours":"выходной","DayOfWeek":"воскресенье"}],"Name":"Правительство Курганской области (Представительство Курганской области при Правительстве РФ)","ShortName":"Правительство Курганской области (Представительство Курганской области при Правительстве РФ)","INN":"4500000214","KPP":"771004001","OGRN":"1024500521517","AdmArea":"Центральный административный округ","District":"Тверской район","LegalAddress":"127006, город Москва, улица Малая Дмитровка, дом 3/10","Address":"Тверская улица, дом 18, корпус 1","ChiefName":"Григорьев Николай Александрович","Phone":[{"Phone":"(495) 694-39-78"}],"geoData":{"type":"Point","coordinates":[37.604241,55.766147]}},{"global_id":641978189,"Fax":[],"Email":[],"WorkingHours":[{"Hours":"09:00-18:00","DayOfWeek":"понедельник"},{"Hours":"09:00-18:00","DayOfWeek":"вторник"},{"Hours":"09:00-18:00","DayOfWeek":"среда"},{"Hours":"09:00-18:00","DayOfWeek":"четверг"},{"Hours":"09:00-17:00","DayOfWeek":"пятница"},{"Hours":"выходной","DayOfWeek":"суббота"},{"Hours":"выходной","DayOfWeek":"воскресенье"}],"ExtraInfo":"predstavitelstvoso@gmail.com","Name":"Представительство Правительства Саратовской области при Правительстве Российской Федерации","ShortName":"Представительство Правительства Саратовской области при Правительстве Российской Федерации","INN":"7710198044","KPP":"770901001","OGRN":"1037739362330","AdmArea":"Центральный административный округ","District":"Басманный район","LegalAddress":"109128, город Москва, Подкопаевский переулок, дом 7, строение 3","Address":"Подкопаевский переулок, дом 7, строение 3","ChiefName":"Максимов Александр Валерьевич","Phone":[{"Phone":"(499) 706-80-66"}],"geoData":{"type":"Point","coordinates":[37.643273,55.754096]}},{"global_id":641978995,"Fax":[{"Fax":"(495) 785-45-36"}],"Email":[{"Email":"v.gubernator74@yandex.ru"}],"WorkingHours":[{"Hours":"09:00-18:00","DayOfWeek":"понедельник"},{"Hours":"09:00-18:00","DayOfWeek":"вторник"},{"Hours":"09:00-18:00","DayOfWeek":"среда"},{"Hours":"09:00-18:00","DayOfWeek":"четверг"},{"Hours":"09:00-16:45","DayOfWeek":"пятница"},{"Hours":"выходной","DayOfWeek":"суббота"},{"Hours":"выходной","DayOfWeek":"воскресенье"}],"Name":"Постоянное Представительство Челябинской области при Правительстве Российской Федерации","ShortName":"Постпредство Челябинской области","INN":"7710032610","KPP":"771301001","OGRN":"1027739738157","AdmArea":"Центральный административный округ","District":"Тверской район","LegalAddress":"127422, город Москва, Дмитровский проезд, дом 4а","Address":"Славянская площадь, дом 2/5/4, строение 3","ChiefName":"Шепилов Александр Олегович","Phone":[{"Phone":"(495) 785-45-48"}],"geoData":{"type":"Point","coordinates":[37.634438,55.753577]}},{"global_id":641980309,"Fax":[{"Fax":"(495) 637-55-24"}],"Email":[{"Email":"vologda.adm@mail.ru"}],"WorkingHours":[{"Hours":"08:00-17:00","DayOfWeek":"понедельник"},{"Hours":"08:00-17:00","DayOfWeek":"вторник"},{"Hours":"08:00-17:00","DayOfWeek":"среда"},{"Hours":"08:00-17:00","DayOfWeek":"четверг"},{"Hours":"08:00-17:00","DayOfWeek":"пятница"},{"Hours":"выходной","DayOfWeek":"суббота"},{"Hours":"выходной","DayOfWeek":"воскресенье"}],"Name":"Представительство Вологодской области при Президенте Российской Федерации и Правительстве Российской Федерации","ShortName":"Представительство Вологодской области при Президенте Российской Федерации и Правительстве Российской Федерации","INN":"7704165795","KPP":"770401001","OGRN":"1027739014038","AdmArea":"Центральный административный округ","District":"район Хамовники","LegalAddress":"119034, г. Москва, Староконюшенный переулок, дом 4 строение 5","Address":"Староконюшенный переулок, дом 4, строение 5","ChiefName":"Соколова Марина Вадимовна","Phone":[{"Phone":"(495) 637-58-58"}],"geoData":{"type":"Point","coordinates":[37.595573,55.744069]}},{"global_id":641980889,"Fax":[{"Fax":"(495) 980-45-19"}],"Email":[{"Email":"pr@uralmsk.ru"}],"WorkingHours":[{"Hours":"09:00-18:00","DayOfWeek":"понедельник"},{"Hours":"09:00-18:00","DayOfWeek":"вторник"},{"Hours":"09:00-18:00","DayOfWeek":"среда"},{"Hours":"09:00-18:00","DayOfWeek":"четверг"},{"Hours":"09:00-16:45","DayOfWeek":"пятница"},{"Hours":"выходной","DayOfWeek":"суббота"},{"Hours":"выходной","DayOfWeek":"воскресенье"}],"Name":"Государственное казенное учреждение Свердловской области «Представительство Губернатора Свердловской области в органах государственной власти Российской Федерации»","ShortName":"ГКУ СО «Представительство Губернатора Свердловской области в органах государственной власти Российской Федерации»","INN":"7704833668","KPP":"770401001","OGRN":"1137746351159","AdmArea":"Центральный административный округ","District":"район Хамовники","LegalAddress":"119034, город Москва, переулок Курсовой, дом 8, строение 2","Address":"Курсовой переулок, дом 8, строение 2","ChiefName":"Овчаров Александр Иванович","Phone":[{"Phone":"(495) 727-06-47"}],"geoData":{"type":"Point","coordinates":[37.604646,55.740983]}},{"global_id":641987995,"Fax":[{"Fax":"(495) 697-50-65"}],"Email":[{"Email":"lipezkpl@mail.ru"},{"Email":"postpred@admlr.lipetsk.ru"}],"WorkingHours":[{"Hours":"09:00-18:00","DayOfWeek":"понедельник"},{"Hours":"09:00-18:00","DayOfWeek":"вторник"},{"Hours":"09:00-18:00","DayOfWeek":"среда"},{"Hours":"09:00-18:00","DayOfWeek":"четверг"},{"Hours":"09:00-17:00","DayOfWeek":"пятница"},{"Hours":"выходной","DayOfWeek":"суббота"},{"Hours":"выходной","DayOfWeek":"воскресенье"}],"Name":"Представительство администрации Липецкой области при Правительстве Российской Федерации","ShortName":"Представительство администрации Липецкой области при Правительстве Российской Федерации","INN":"7722298526","KPP":"770401001","OGRN":"1037722041202","AdmArea":"Центральный административный округ","District":"район Арбат","LegalAddress":"119019, город Москва,  улица Новый Арбат,  дом 19, офис 1612","Address":"улица Новый Арбат, дом 19","ChiefName":"Русляков Виктор Иванович","Phone":[{"Phone":"(495) 697-50-65"}],"geoData":{"type":"Point","coordinates":[37.588548,55.752156]}},{"global_id":642013504,"Fax":[{"Fax":"(495) 490-00-90"}],"Email":[{"Email":"info@pp.rkomi.ru"}],"WorkingHours":[{"Hours":"09:00-18:00","DayOfWeek":"понедельник"},{"Hours":"09:00-18:00","DayOfWeek":"вторник"},{"Hours":"09:00-18:00","DayOfWeek":"среда"},{"Hours":"09:00-18:00","DayOfWeek":"четверг"},{"Hours":"09:00-16:45","DayOfWeek":"пятница"},{"Hours":"выходной","DayOfWeek":"суббота"},{"Hours":"выходной","DayOfWeek":"воскресенье"}],"Name":"Постоянное представительство Республики Коми при Президенте Российской Федерации","ShortName":"Представительство Республики Коми в Москве","INN":"7704024875","KPP":"773301001","OGRN":"1027740000000","AdmArea":"Северо-Западный административный округ","District":"район Покровское-Стрешнево","LegalAddress":"125367, город Москва, Волоколамское шоссе, дом 62","Address":"город Москва, Волоколамское шоссе, дом 62","ChiefName":"Саришвили Григорий Наскидович","Phone":[{"Phone":"(495) 490-00-08"}],"geoData":{"type":"Point","coordinates":[37.462604,55.817694]}},{"global_id":642021599,"Fax":[{"Fax":"(495) 623-60-46"}],"Email":[{"Email":"pprb@ropnet.ru"}],"WorkingHours":[{"Hours":"08:00-17:00","DayOfWeek":"понедельник"},{"Hours":"08:00-17:00","DayOfWeek":"вторник"},{"Hours":"08:00-17:00","DayOfWeek":"среда"},{"Hours":"08:00-17:00","DayOfWeek":"четверг"},{"Hours":"08:00-17:00","DayOfWeek":"пятница"},{"Hours":"выходной","DayOfWeek":"суббота"},{"Hours":"выходной","DayOfWeek":"воскресенье"}],"Name":"Полномочное представительство Республики Бурятия при Президенте РФ","ShortName":"ППРБ при Президенте РФ","INN":"7717044759","KPP":"770801001","OGRN":"1037740000000","AdmArea":"Центральный административный округ","District":"Красносельский район","LegalAddress":"107078, город Москва, улица Мясницкая, дом 43, строение 2","Address":"Мясницкая улица, дом 43, строение 2","ChiefName":"Лехатинов Анатолий Анатольевич","Phone":[{"Phone":"(495) 625-95-00"}],"geoData":{"type":"Point","coordinates":[37.642878,55.768339]}},{"global_id":642022927,"Fax":[{"Fax":"(495) 953-54-89"}],"Email":[{"Email":"ako-pm@mail.ru"}],"WorkingHours":[{"Hours":"08:30-17:30","DayOfWeek":"понедельник"},{"Hours":"08:30-17:30","DayOfWeek":"вторник"},{"Hours":"08:30-17:30","DayOfWeek":"среда"},{"Hours":"08:30-17:30","DayOfWeek":"четверг"},{"Hours":"08:30-17:30","DayOfWeek":"пятница"},{"Hours":"выходной","DayOfWeek":"суббота"},{"Hours":"выходной","DayOfWeek":"воскресенье"}],"Name":"Представительство администрации Кемеровской области при Правительстве Российской Федерации","ShortName":"ПАКО при Правительстве Российской Федерации","INN":"7704091889","KPP":"770501001","OGRN":"1037739750454","AdmArea":"Центральный административный округ","District":"район Замоскворечье","LegalAddress":"115184, город Москва, улица Большая Татарская, дом 5/14, строение 9","Address":"Большая Татарская улица, дом 5, строение 9","ChiefName":"Чеканова Юлия Юрьевна","Phone":[{"Phone":"(495) 961-16-00"}],"geoData":{"type":"Point","coordinates":[37.63137,55.742681]}},{"global_id":642023933,"Fax":[],"Email":[{"Email":"priem.msk@sakhalin.gov.ru"}],"WorkingHours":[{"Hours":"08:00-17:00","DayOfWeek":"понедельник"},{"Hours":"08:00-17:00","DayOfWeek":"вторник"},{"Hours":"08:00-17:00","DayOfWeek":"среда"},{"Hours":"08:00-17:00","DayOfWeek":"четверг"},{"Hours":"08:00-17:00","DayOfWeek":"пятница"},{"Hours":"выходной","DayOfWeek":"суббота"},{"Hours":"выходной","DayOfWeek":"воскресенье"}],"Name":"Представительство Губернатора и Правительства Сахалинской области в г. Москве","ShortName":"Представительство Губернатора и Правительства Сахалинской области в г. Москве","INN":"7704136339","KPP":"770401001","OGRN":"1027739758903","AdmArea":"Центральный административный округ","District":"район Арбат","LegalAddress":"127025, город Москва, улица Новый Арбат, дом 19, офис 1132","Address":"улица Новый Арбат, дом 19","ChiefName":"Кочнов Олег Анатольевич","Phone":[{"Phone":"(495) 697-79-09"}],"geoData":{"type":"Point","coordinates":[37.588548,55.752156]}},{"global_id":642026883,"Fax":[{"Fax":"(495) 650-15-72"}],"Email":[{"Email":"predvolgaobl@volganet.ru"},{"Email":"predvolgaobl@mail.ru"}],"WorkingHours":[{"Hours":"09:00-18:00","DayOfWeek":"понедельник"},{"Hours":"09:00-18:00","DayOfWeek":"вторник"},{"Hours":"09:00-18:00","DayOfWeek":"среда"},{"Hours":"09:00-18:00","DayOfWeek":"четверг"},{"Hours":"09:00-18:00","DayOfWeek":"пятница"},{"Hours":"выходной","DayOfWeek":"суббота"},{"Hours":"выходной","DayOfWeek":"воскресенье"}],"Name":"Представительство Волгоградской области в городе Москве","ShortName":"Представительство Волгоградской области в городе Москве","INN":"7710873210","KPP":"771001001","OGRN":"1107746711929","AdmArea":"Центральный административный округ","District":"Тверской район","LegalAddress":"123001, город Москва, Мамоновский переулок, дом 6","Address":"Мамоновский переулок, дом 6","ChiefName":"Льянов Альберт Борисович","Phone":[{"Phone":"(495) 650-66-75"},{"Phone":"(495) 650-17-92"}],"geoData":{"type":"Point","coordinates":[37.598932,55.766147]}},{"global_id":642030531,"Fax":[{"Fax":"(495) 628-34-47"}],"Email":[{"Email":"msk.karelia@yandex.ru"}],"WorkingHours":[{"Hours":"09:00-18:00","DayOfWeek":"понедельник"},{"Hours":"09:00-18:00","DayOfWeek":"вторник"},{"Hours":"09:00-18:00","DayOfWeek":"среда"},{"Hours":"09:00-18:00","DayOfWeek":"четверг"},{"Hours":"09:00-18:00","DayOfWeek":"пятница"},{"Hours":"выходной","DayOfWeek":"суббота"},{"Hours":"выходной","DayOfWeek":"воскресенье"}],"Name":"Государственное казенное учреждение Республики Карелия «Представительство Республики Карелия при Президенте Российской Федерации»","ShortName":"ГКУ РК «Представительство Карелии при Президенте России»","INN":"7701367899","KPP":"770101001","OGRN":"1137746732188","AdmArea":"Центральный административный округ","District":"Басманный район","LegalAddress":"101000, город Москва, Армянский переулок, дом 9","Address":"Армянский переулок, дом 9, строение 1","ChiefName":"Корниенко Вадим Анатольевич","Phone":[{"Phone":"(495) 628-66-16"}],"geoData":{"type":"Point","coordinates":[37.63703,55.759603]}},{"global_id":642030592,"Fax":[{"Fax":"(495) 953-07-82"}],"Email":[{"Email":"pr@72to.ru"}],"WorkingHours":[{"Hours":"08:45-18:00","DayOfWeek":"понедельник"},{"Hours":"08:45-18:00","DayOfWeek":"вторник"},{"Hours":"08:45-18:00","DayOfWeek":"среда"},{"Hours":"08:45-18:00","DayOfWeek":"четверг"},{"Hours":"09:00-17:00","DayOfWeek":"пятница"},{"Hours":"выходной","DayOfWeek":"суббота"},{"Hours":"выходной","DayOfWeek":"воскресенье"}],"Name":"Представительство Правительства Тюменской области в органах государственной власти Российской Федерации","ShortName":"Представительство Правительства Тюменской области в органах государственной власти Российской Федерации","INN":"7705703750","KPP":"770501001","OGRN":"1057749350955","AdmArea":"Центральный административный округ","District":"район Якиманка","LegalAddress":"119017, город Москва, улица Пятницкая, дом 47, строение 2","Address":"2-й Спасоналивковский переулок, дом 7","ChiefName":"Тараканов Павел Владимирович","Phone":[{"Phone":"(495) 953-07-82"},{"Phone":"(495) 122-03-26"}],"geoData":{"type":"Point","coordinates":[37.617447,55.731663]}},{"global_id":642030594,"Fax":[{"Fax":"(495) 657-97-56"}],"Email":[{"Email":"official@mos.kreml.nnov.ru"}],"WorkingHours":[{"Hours":"09:00-18:00","DayOfWeek":"понедельник"},{"Hours":"09:00-18:00","DayOfWeek":"вторник"},{"Hours":"09:00-18:00","DayOfWeek":"среда"},{"Hours":"09:00-18:00","DayOfWeek":"четверг"},{"Hours":"09:00-16:45","DayOfWeek":"пятница"},{"Hours":"выходной","DayOfWeek":"суббота"},{"Hours":"выходной","DayOfWeek":"воскресенье"}],"Name":"Государственное казенное учреждение Нижегородской области «Представительство Правительства Нижегородской области при Правительстве Российской Федерации»","ShortName":"ГКУ НО «Представительство Правительства НО при Правительстве РФ»","INN":"7704091840","KPP":"770401001","OGRN":"1027700499562","AdmArea":"Центральный административный округ","District":"Тверской район","LegalAddress":"103073, город  Москва, улица Воздвиженка, дом 4","Address":"Неглинная улица, дом 15, строение 1","ChiefName":"Ратозий Василий Николаевич","Phone":[{"Phone":"(495) 657-97-52"}],"geoData":{"type":"Point","coordinates":[37.619647,55.762961]}}]